<?xml version="1.0"?>
<ArrayOfStationLine xmlns:xsi="http://www.w3.org/2001/XMLSchema-instance" xmlns:xsd="http://www.w3.org/2001/XMLSchema">
  <StationLine>
    <CheckedOrNot>false</CheckedOrNot>
    <ID>81</ID>
    <shelterNumber>38831</shelterNumber>
    <latitude>32.183921</latitude>
    <longitude>34.917806</longitude>
    <address>בי''ס בר לב/בן יהודה</address>
    <HandicappedAccess>true</HandicappedAccess>
    <DigitPanel>false</DigitPanel>
    <LineHere>21</LineHere>
    <nextStation>0</nextStation>
    <prevStation>0</prevStation>
    <Temps>PT2M35S</Temps>
    <Distance>118</Distance>
  </StationLine>
  <StationLine>
    <CheckedOrNot>false</CheckedOrNot>
    <ID>82</ID>
    <shelterNumber>38832</shelterNumber>
    <latitude>31.870034</latitude>
    <longitude>34.819541</longitude>
    <address>הרצל/צומת בילו</address>
    <HandicappedAccess>true</HandicappedAccess>
    <DigitPanel>false</DigitPanel>
    <LineHere>21</LineHere>
    <nextStation>0</nextStation>
    <prevStation>0</prevStation>
    <Temps>PT3M45S</Temps>
    <Distance>406</Distance>
  </StationLine>
  <StationLine>
    <CheckedOrNot>false</CheckedOrNot>
    <ID>83</ID>
    <shelterNumber>38833</shelterNumber>
    <latitude>31.984553</latitude>
    <longitude>34.782828</longitude>
    <address>הנחשול/הדייגים</address>
    <HandicappedAccess>true</HandicappedAccess>
    <DigitPanel>false</DigitPanel>
    <LineHere>21</LineHere>
    <nextStation>0</nextStation>
    <prevStation>0</prevStation>
    <Temps>PT4M3S</Temps>
    <Distance>467</Distance>
  </StationLine>
  <StationLine>
    <CheckedOrNot>false</CheckedOrNot>
    <ID>84</ID>
    <shelterNumber>38834</shelterNumber>
    <latitude>31.88855</latitude>
    <longitude>34.790904</longitude>
    <address>פריד/ששת הימים</address>
    <HandicappedAccess>true</HandicappedAccess>
    <DigitPanel>false</DigitPanel>
    <LineHere>21</LineHere>
    <nextStation>0</nextStation>
    <prevStation>0</prevStation>
    <Temps>PT5M57S</Temps>
    <Distance>460</Distance>
  </StationLine>
  <StationLine>
    <CheckedOrNot>false</CheckedOrNot>
    <ID>85</ID>
    <shelterNumber>38836</shelterNumber>
    <latitude>31.956392</latitude>
    <longitude>34.898098</longitude>
    <address>ת. מרכזית לוד/הורדה</address>
    <HandicappedAccess>true</HandicappedAccess>
    <DigitPanel>false</DigitPanel>
    <LineHere>22</LineHere>
    <nextStation>0</nextStation>
    <prevStation>0</prevStation>
    <Temps>PT1M</Temps>
    <Distance>142</Distance>
  </StationLine>
  <StationLine>
    <CheckedOrNot>false</CheckedOrNot>
    <ID>86</ID>
    <shelterNumber>38837</shelterNumber>
    <latitude>31.892166</latitude>
    <longitude>34.796071</longitude>
    <address>חנה אברך/וולקני</address>
    <HandicappedAccess>true</HandicappedAccess>
    <DigitPanel>false</DigitPanel>
    <LineHere>22</LineHere>
    <nextStation>0</nextStation>
    <prevStation>0</prevStation>
    <Temps>PT5M16S</Temps>
    <Distance>356</Distance>
  </StationLine>
  <StationLine>
    <CheckedOrNot>false</CheckedOrNot>
    <ID>87</ID>
    <shelterNumber>38838</shelterNumber>
    <latitude>31.857565</latitude>
    <longitude>34.824106</longitude>
    <address>הרצל/משה שרת</address>
    <HandicappedAccess>true</HandicappedAccess>
    <DigitPanel>false</DigitPanel>
    <LineHere>22</LineHere>
    <nextStation>0</nextStation>
    <prevStation>0</prevStation>
    <Temps>PT4M48S</Temps>
    <Distance>455</Distance>
  </StationLine>
  <StationLine>
    <CheckedOrNot>false</CheckedOrNot>
    <ID>88</ID>
    <shelterNumber>38839</shelterNumber>
    <latitude>31.862305</latitude>
    <longitude>34.821857</longitude>
    <address>הבנים/אלי כהן</address>
    <HandicappedAccess>true</HandicappedAccess>
    <DigitPanel>false</DigitPanel>
    <LineHere>22</LineHere>
    <nextStation>0</nextStation>
    <prevStation>0</prevStation>
    <Temps>PT3M58S</Temps>
    <Distance>441</Distance>
  </StationLine>
  <StationLine>
    <CheckedOrNot>false</CheckedOrNot>
    <ID>89</ID>
    <shelterNumber>38840</shelterNumber>
    <latitude>31.865085</latitude>
    <longitude>34.822237</longitude>
    <address>ויצמן/הבנים</address>
    <HandicappedAccess>true</HandicappedAccess>
    <DigitPanel>false</DigitPanel>
    <LineHere>23</LineHere>
    <nextStation>0</nextStation>
    <prevStation>0</prevStation>
    <Temps>PT58S</Temps>
    <Distance>267</Distance>
  </StationLine>
  <StationLine>
    <CheckedOrNot>false</CheckedOrNot>
    <ID>90</ID>
    <shelterNumber>38841</shelterNumber>
    <latitude>31.865222</latitude>
    <longitude>34.818957</longitude>
    <address>האירוס/הכלנית</address>
    <HandicappedAccess>true</HandicappedAccess>
    <DigitPanel>false</DigitPanel>
    <LineHere>23</LineHere>
    <nextStation>0</nextStation>
    <prevStation>0</prevStation>
    <Temps>PT45S</Temps>
    <Distance>238</Distance>
  </StationLine>
  <StationLine>
    <CheckedOrNot>false</CheckedOrNot>
    <ID>91</ID>
    <shelterNumber>38842</shelterNumber>
    <latitude>31.867597</latitude>
    <longitude>34.818392</longitude>
    <address>הכלנית/הנרקיס</address>
    <HandicappedAccess>true</HandicappedAccess>
    <DigitPanel>false</DigitPanel>
    <LineHere>23</LineHere>
    <nextStation>0</nextStation>
    <prevStation>0</prevStation>
    <Temps>PT1M6S</Temps>
    <Distance>283</Distance>
  </StationLine>
  <StationLine>
    <CheckedOrNot>false</CheckedOrNot>
    <ID>92</ID>
    <shelterNumber>38844</shelterNumber>
    <latitude>31.86244</latitude>
    <longitude>34.827023</longitude>
    <address>אלי כהן/לוחמי הגטאות</address>
    <HandicappedAccess>true</HandicappedAccess>
    <DigitPanel>false</DigitPanel>
    <LineHere>23</LineHere>
    <nextStation>0</nextStation>
    <prevStation>0</prevStation>
    <Temps>PT3M40S</Temps>
    <Distance>390</Distance>
  </StationLine>
  <StationLine>
    <CheckedOrNot>false</CheckedOrNot>
    <ID>93</ID>
    <shelterNumber>38845</shelterNumber>
    <latitude>31.863501</latitude>
    <longitude>34.828702</longitude>
    <address>שבזי/שבת אחים</address>
    <HandicappedAccess>true</HandicappedAccess>
    <DigitPanel>false</DigitPanel>
    <LineHere>24</LineHere>
    <nextStation>0</nextStation>
    <prevStation>0</prevStation>
    <Temps>PT5M39S</Temps>
    <Distance>327</Distance>
  </StationLine>
  <StationLine>
    <CheckedOrNot>false</CheckedOrNot>
    <ID>94</ID>
    <shelterNumber>38846</shelterNumber>
    <latitude>31.865348</latitude>
    <longitude>34.827102</longitude>
    <address>שבזי/ויצמן</address>
    <HandicappedAccess>true</HandicappedAccess>
    <DigitPanel>false</DigitPanel>
    <LineHere>24</LineHere>
    <nextStation>0</nextStation>
    <prevStation>0</prevStation>
    <Temps>PT3M8S</Temps>
    <Distance>562</Distance>
  </StationLine>
  <StationLine>
    <CheckedOrNot>false</CheckedOrNot>
    <ID>95</ID>
    <shelterNumber>38847</shelterNumber>
    <latitude>31.977409</latitude>
    <longitude>34.763896</longitude>
    <address>חיים בר לב/שדרות יצחק רבין</address>
    <HandicappedAccess>true</HandicappedAccess>
    <DigitPanel>false</DigitPanel>
    <LineHere>24</LineHere>
    <nextStation>0</nextStation>
    <prevStation>0</prevStation>
    <Temps>PT4M40S</Temps>
    <Distance>571</Distance>
  </StationLine>
  <StationLine>
    <CheckedOrNot>false</CheckedOrNot>
    <ID>96</ID>
    <shelterNumber>38848</shelterNumber>
    <latitude>32.300345</latitude>
    <longitude>34.912708</longitude>
    <address>מרכז לבריאות הנפש לב השרון</address>
    <HandicappedAccess>true</HandicappedAccess>
    <DigitPanel>false</DigitPanel>
    <LineHere>24</LineHere>
    <nextStation>0</nextStation>
    <prevStation>0</prevStation>
    <Temps>PT4M51S</Temps>
    <Distance>597</Distance>
  </StationLine>
  <StationLine>
    <CheckedOrNot>false</CheckedOrNot>
    <ID>97</ID>
    <shelterNumber>38849</shelterNumber>
    <latitude>32.301347</latitude>
    <longitude>34.912602</longitude>
    <address>מרכז לבריאות הנפש לב השרון</address>
    <HandicappedAccess>true</HandicappedAccess>
    <DigitPanel>false</DigitPanel>
    <LineHere>25</LineHere>
    <nextStation>0</nextStation>
    <prevStation>0</prevStation>
    <Temps>PT3M50S</Temps>
    <Distance>439</Distance>
  </StationLine>
  <StationLine>
    <CheckedOrNot>false</CheckedOrNot>
    <ID>98</ID>
    <shelterNumber>38852</shelterNumber>
    <latitude>31.914255</latitude>
    <longitude>34.807944</longitude>
    <address>הולצמן/המדע</address>
    <HandicappedAccess>true</HandicappedAccess>
    <DigitPanel>false</DigitPanel>
    <LineHere>25</LineHere>
    <nextStation>0</nextStation>
    <prevStation>0</prevStation>
    <Temps>PT3M46S</Temps>
    <Distance>444</Distance>
  </StationLine>
  <StationLine>
    <CheckedOrNot>false</CheckedOrNot>
    <ID>99</ID>
    <shelterNumber>38854</shelterNumber>
    <latitude>31.963668</latitude>
    <longitude>34.836363</longitude>
    <address>מחנה צריפין/מועדון</address>
    <HandicappedAccess>true</HandicappedAccess>
    <DigitPanel>false</DigitPanel>
    <LineHere>25</LineHere>
    <nextStation>0</nextStation>
    <prevStation>0</prevStation>
    <Temps>PT18S</Temps>
    <Distance>251</Distance>
  </StationLine>
  <StationLine>
    <CheckedOrNot>false</CheckedOrNot>
    <ID>100</ID>
    <shelterNumber>38855</shelterNumber>
    <latitude>31.856115</latitude>
    <longitude>34.825249</longitude>
    <address>הרצל/גולני</address>
    <HandicappedAccess>true</HandicappedAccess>
    <DigitPanel>false</DigitPanel>
    <LineHere>25</LineHere>
    <nextStation>0</nextStation>
    <prevStation>0</prevStation>
    <Temps>PT3M32S</Temps>
    <Distance>555</Distance>
  </StationLine>
  <StationLine>
    <CheckedOrNot>false</CheckedOrNot>
    <ID>101</ID>
    <shelterNumber>38856</shelterNumber>
    <latitude>31.874963</latitude>
    <longitude>34.81249</longitude>
    <address>הרותם/הדגניות</address>
    <HandicappedAccess>true</HandicappedAccess>
    <DigitPanel>false</DigitPanel>
    <LineHere>26</LineHere>
    <nextStation>0</nextStation>
    <prevStation>0</prevStation>
    <Temps>PT3M26S</Temps>
    <Distance>306</Distance>
  </StationLine>
  <StationLine>
    <CheckedOrNot>false</CheckedOrNot>
    <ID>102</ID>
    <shelterNumber>38859</shelterNumber>
    <latitude>32.300035</latitude>
    <longitude>34.910842</longitude>
    <address>הערבה</address>
    <HandicappedAccess>true</HandicappedAccess>
    <DigitPanel>false</DigitPanel>
    <LineHere>26</LineHere>
    <nextStation>0</nextStation>
    <prevStation>0</prevStation>
    <Temps>PT5M54S</Temps>
    <Distance>448</Distance>
  </StationLine>
  <StationLine>
    <CheckedOrNot>false</CheckedOrNot>
    <ID>103</ID>
    <shelterNumber>38860</shelterNumber>
    <latitude>32.305234</latitude>
    <longitude>34.948647</longitude>
    <address>מבוא הגפן/מורד התאנה</address>
    <HandicappedAccess>true</HandicappedAccess>
    <DigitPanel>false</DigitPanel>
    <LineHere>26</LineHere>
    <nextStation>0</nextStation>
    <prevStation>0</prevStation>
    <Temps>PT5M52S</Temps>
    <Distance>327</Distance>
  </StationLine>
  <StationLine>
    <CheckedOrNot>false</CheckedOrNot>
    <ID>104</ID>
    <shelterNumber>38861</shelterNumber>
    <latitude>32.304022</latitude>
    <longitude>34.943393</longitude>
    <address>מבוא הגפן/ההרחבה</address>
    <HandicappedAccess>true</HandicappedAccess>
    <DigitPanel>false</DigitPanel>
    <LineHere>26</LineHere>
    <nextStation>0</nextStation>
    <prevStation>0</prevStation>
    <Temps>PT4M51S</Temps>
    <Distance>305</Distance>
  </StationLine>
  <StationLine>
    <CheckedOrNot>false</CheckedOrNot>
    <ID>105</ID>
    <shelterNumber>38862</shelterNumber>
    <latitude>32.302957</latitude>
    <longitude>34.940529</longitude>
    <address>ההרחבה א</address>
    <HandicappedAccess>true</HandicappedAccess>
    <DigitPanel>false</DigitPanel>
    <LineHere>27</LineHere>
    <nextStation>0</nextStation>
    <prevStation>0</prevStation>
    <Temps>PT2M18S</Temps>
    <Distance>259</Distance>
  </StationLine>
  <StationLine>
    <CheckedOrNot>false</CheckedOrNot>
    <ID>106</ID>
    <shelterNumber>38863</shelterNumber>
    <latitude>32.300264</latitude>
    <longitude>34.939512</longitude>
    <address>ההרחבה ב</address>
    <HandicappedAccess>true</HandicappedAccess>
    <DigitPanel>false</DigitPanel>
    <LineHere>27</LineHere>
    <nextStation>0</nextStation>
    <prevStation>0</prevStation>
    <Temps>PT3M17S</Temps>
    <Distance>354</Distance>
  </StationLine>
  <StationLine>
    <CheckedOrNot>false</CheckedOrNot>
    <ID>107</ID>
    <shelterNumber>38864</shelterNumber>
    <latitude>32.298171</latitude>
    <longitude>34.938705</longitude>
    <address>ההרחבה/הותיקים</address>
    <HandicappedAccess>true</HandicappedAccess>
    <DigitPanel>false</DigitPanel>
    <LineHere>27</LineHere>
    <nextStation>0</nextStation>
    <prevStation>0</prevStation>
    <Temps>PT1M21S</Temps>
    <Distance>280</Distance>
  </StationLine>
  <StationLine>
    <CheckedOrNot>false</CheckedOrNot>
    <ID>108</ID>
    <shelterNumber>38865</shelterNumber>
    <latitude>31.990876</latitude>
    <longitude>34.8976</longitude>
    <address>רשות שדות התעופה/העליה</address>
    <HandicappedAccess>true</HandicappedAccess>
    <DigitPanel>false</DigitPanel>
    <LineHere>27</LineHere>
    <nextStation>0</nextStation>
    <prevStation>0</prevStation>
    <Temps>PT5M35S</Temps>
    <Distance>365</Distance>
  </StationLine>
  <StationLine>
    <CheckedOrNot>false</CheckedOrNot>
    <ID>109</ID>
    <shelterNumber>38866</shelterNumber>
    <latitude>31.998767</latitude>
    <longitude>34.879725</longitude>
    <address>כנף/ברוש</address>
    <HandicappedAccess>true</HandicappedAccess>
    <DigitPanel>false</DigitPanel>
    <LineHere>28</LineHere>
    <nextStation>0</nextStation>
    <prevStation>0</prevStation>
    <Temps>PT3M6S</Temps>
    <Distance>427</Distance>
  </StationLine>
  <StationLine>
    <CheckedOrNot>false</CheckedOrNot>
    <ID>110</ID>
    <shelterNumber>38867</shelterNumber>
    <latitude>31.883019</latitude>
    <longitude>34.818708</longitude>
    <address>החבורה/דב הוז</address>
    <HandicappedAccess>true</HandicappedAccess>
    <DigitPanel>false</DigitPanel>
    <LineHere>28</LineHere>
    <nextStation>0</nextStation>
    <prevStation>0</prevStation>
    <Temps>PT5M34S</Temps>
    <Distance>356</Distance>
  </StationLine>
  <StationLine>
    <CheckedOrNot>false</CheckedOrNot>
    <ID>111</ID>
    <shelterNumber>38869</shelterNumber>
    <latitude>32.349776</latitude>
    <longitude>34.926837</longitude>
    <address>בית הלוי ה</address>
    <HandicappedAccess>true</HandicappedAccess>
    <DigitPanel>false</DigitPanel>
    <LineHere>28</LineHere>
    <nextStation>0</nextStation>
    <prevStation>0</prevStation>
    <Temps>PT11S</Temps>
    <Distance>105</Distance>
  </StationLine>
  <StationLine>
    <CheckedOrNot>false</CheckedOrNot>
    <ID>112</ID>
    <shelterNumber>38870</shelterNumber>
    <latitude>32.352953</latitude>
    <longitude>34.899465</longitude>
    <address>הראשונים/כביש 5700</address>
    <HandicappedAccess>true</HandicappedAccess>
    <DigitPanel>false</DigitPanel>
    <LineHere>28</LineHere>
    <nextStation>0</nextStation>
    <prevStation>0</prevStation>
    <Temps>PT4M39S</Temps>
    <Distance>442</Distance>
  </StationLine>
  <StationLine>
    <CheckedOrNot>false</CheckedOrNot>
    <ID>113</ID>
    <shelterNumber>38872</shelterNumber>
    <latitude>31.897286</latitude>
    <longitude>34.775083</longitude>
    <address>הגאון בן איש חי/צאלון</address>
    <HandicappedAccess>true</HandicappedAccess>
    <DigitPanel>false</DigitPanel>
    <LineHere>29</LineHere>
    <nextStation>0</nextStation>
    <prevStation>0</prevStation>
    <Temps>PT5M42S</Temps>
    <Distance>409</Distance>
  </StationLine>
  <StationLine>
    <CheckedOrNot>false</CheckedOrNot>
    <ID>114</ID>
    <shelterNumber>38873</shelterNumber>
    <latitude>31.883941</latitude>
    <longitude>34.807039</longitude>
    <address>עוקשי/לוי אשכול</address>
    <HandicappedAccess>true</HandicappedAccess>
    <DigitPanel>false</DigitPanel>
    <LineHere>29</LineHere>
    <nextStation>0</nextStation>
    <prevStation>0</prevStation>
    <Temps>PT2M36S</Temps>
    <Distance>277</Distance>
  </StationLine>
  <StationLine>
    <CheckedOrNot>false</CheckedOrNot>
    <ID>115</ID>
    <shelterNumber>38875</shelterNumber>
    <latitude>31.896762</latitude>
    <longitude>34.816752</longitude>
    <address>מנוחה ונחלה/יהודה גורודיסקי</address>
    <HandicappedAccess>true</HandicappedAccess>
    <DigitPanel>false</DigitPanel>
    <LineHere>29</LineHere>
    <nextStation>0</nextStation>
    <prevStation>0</prevStation>
    <Temps>PT3M19S</Temps>
    <Distance>355</Distance>
  </StationLine>
  <StationLine>
    <CheckedOrNot>false</CheckedOrNot>
    <ID>116</ID>
    <shelterNumber>38876</shelterNumber>
    <latitude>31.898463</latitude>
    <longitude>34.823461</longitude>
    <address>גורודסקי/יחיאל פלדי</address>
    <HandicappedAccess>true</HandicappedAccess>
    <DigitPanel>false</DigitPanel>
    <LineHere>29</LineHere>
    <nextStation>0</nextStation>
    <prevStation>0</prevStation>
    <Temps>PT1M26S</Temps>
    <Distance>252</Distance>
  </StationLine>
  <StationLine>
    <CheckedOrNot>false</CheckedOrNot>
    <ID>117</ID>
    <shelterNumber>38877</shelterNumber>
    <latitude>32.076535</latitude>
    <longitude>34.904907</longitude>
    <address>דרך מנחם בגין/יעקב חזן</address>
    <HandicappedAccess>true</HandicappedAccess>
    <DigitPanel>false</DigitPanel>
    <LineHere>30</LineHere>
    <nextStation>0</nextStation>
    <prevStation>0</prevStation>
    <Temps>PT3M9S</Temps>
    <Distance>498</Distance>
  </StationLine>
  <StationLine>
    <CheckedOrNot>false</CheckedOrNot>
    <ID>118</ID>
    <shelterNumber>38878</shelterNumber>
    <latitude>32.299994</latitude>
    <longitude>34.878765</longitude>
    <address>דרך הפארק/הרב נריה</address>
    <HandicappedAccess>true</HandicappedAccess>
    <DigitPanel>false</DigitPanel>
    <LineHere>30</LineHere>
    <nextStation>0</nextStation>
    <prevStation>0</prevStation>
    <Temps>PT1M59S</Temps>
    <Distance>180</Distance>
  </StationLine>
  <StationLine>
    <CheckedOrNot>false</CheckedOrNot>
    <ID>119</ID>
    <shelterNumber>38879</shelterNumber>
    <latitude>31.865457</latitude>
    <longitude>34.859437</longitude>
    <address>התאנה/הגפן</address>
    <HandicappedAccess>true</HandicappedAccess>
    <DigitPanel>false</DigitPanel>
    <LineHere>30</LineHere>
    <nextStation>0</nextStation>
    <prevStation>0</prevStation>
    <Temps>PT3M53S</Temps>
    <Distance>305</Distance>
  </StationLine>
  <StationLine>
    <CheckedOrNot>false</CheckedOrNot>
    <ID>120</ID>
    <shelterNumber>38880</shelterNumber>
    <latitude>31.866772</latitude>
    <longitude>34.864555</longitude>
    <address>התאנה/האלון</address>
    <HandicappedAccess>true</HandicappedAccess>
    <DigitPanel>false</DigitPanel>
    <LineHere>30</LineHere>
    <nextStation>0</nextStation>
    <prevStation>0</prevStation>
    <Temps>PT2M26S</Temps>
    <Distance>173</Distance>
  </StationLine>
</ArrayOfStationLine>